,City,Cloudiness,Country,Date,Humidity,Latitude,Longitude,Max Temperature,Windspeed
0,ushuaia,20,AR,1604802880,44,-54.8,-68.3,57.2,17.22
1,saskylakh,6,RU,1604803030,89,71.92,114.08,-9.36,8.43
2,vardo,60,NO,1604802972,78,70.37,31.11,39.4,36.82
3,ormara,0,PK,1604803377,42,25.21,64.64,77.79,3.78
4,bluff,35,NZ,1604802960,55,-46.6,168.33,55.0,10.0
5,port alfred,0,ZA,1604802606,77,-33.59,26.89,64.18,8.7
6,severo-kurilsk,20,RU,1604803304,77,50.68,156.12,36.77,5.99
7,punta arenas,20,CL,1604802915,71,-53.15,-70.92,51.8,24.16
8,acajutla,100,SV,1604803378,100,13.59,-89.83,70.0,2.04
9,jamestown,1,US,1604802871,50,42.1,-79.24,55.4,4.7
10,san mateo del mar,100,MX,1604803378,71,16.2,-95.0,79.81,27.67
11,ribeira brava,20,PT,1604803378,77,32.65,-17.07,62.6,5.82
12,hermanus,85,ZA,1604802909,79,-34.42,19.23,59.0,4.0
13,albany,11,US,1604802851,61,42.6,-73.97,54.0,3.2
14,thompson,90,CA,1604803089,85,55.74,-97.86,15.8,6.93
15,dunedin,2,NZ,1604803378,48,-45.87,170.5,55.0,17.0
16,busselton,97,AU,1604802930,60,-33.65,115.33,73.0,5.99
17,pombas,75,CV,1604803378,78,17.15,-25.02,77.0,17.22
18,carauari,95,BR,1604803378,98,-4.88,-66.9,73.69,1.68
19,vila velha,75,BR,1604803149,94,-20.33,-40.29,73.4,2.24
20,mataura,0,NZ,1604802688,55,-46.19,168.86,55.0,10.0
21,urengoy,100,RU,1604803109,99,65.97,78.37,30.42,4.18
22,atuona,23,PF,1604802925,79,-9.8,-139.03,77.56,13.65
23,norman wells,75,CA,1604803033,92,65.28,-126.83,28.4,3.36
24,bredasdorp,44,ZA,1604802997,82,-34.53,20.04,57.2,11.41
25,srednekolymsk,84,RU,1604803379,92,67.45,153.68,-2.69,7.63
26,northam,100,GB,1604803182,98,51.03,-4.22,55.99,9.26
27,hokitika,100,NZ,1604803379,50,-42.72,170.97,58.28,10.25
28,sidi bin nur,0,TN,1604803379,93,35.53,10.92,60.8,2.24
29,pevek,99,RU,1604802722,97,69.7,170.31,13.64,2.55
30,guerrero negro,0,MX,1604803379,66,27.98,-114.06,63.46,16.17
31,maceio,20,BR,1604803380,88,-9.67,-35.74,77.0,6.93
32,port elizabeth,0,ZA,1604802990,93,-33.92,25.57,59.0,4.7
33,los llanos de aridane,20,ES,1604803380,63,28.66,-17.92,66.2,6.93
34,broome,1,US,1604803380,51,42.25,-75.83,59.0,6.93
35,irtyshskiy,100,RU,1604803380,98,58.33,68.13,34.84,4.29
36,barrow,90,US,1604802687,86,71.29,-156.79,30.2,20.8
37,kemijarvi,0,FI,1604803380,87,66.71,27.43,32.31,13.73
38,agirish,1,RU,1604803380,97,61.92,63.02,27.27,5.32
39,puerto escondido,74,MX,1604803380,77,15.85,-97.07,79.68,2.86
40,waipawa,100,NZ,1604803380,76,-41.41,175.52,51.8,35.57
41,marawi,26,PH,1604802935,75,8.0,124.29,82.99,5.99
42,batagay,62,RU,1604803381,84,67.63,134.63,-22.72,1.41
43,victoria,75,HK,1604802973,56,22.29,114.16,79.0,1.99
44,luderitz,0,NA,1604802927,87,-26.65,15.16,60.51,4.54
45,rikitea,100,PF,1604802692,74,-23.12,-134.97,71.74,17.85
46,rocha,1,UY,1604803249,96,-34.48,-54.33,55.26,2.98
47,frankfort,0,ZA,1604803148,43,-27.27,28.48,63.54,2.57
48,road town,91,VG,1604803218,89,18.42,-64.62,80.01,5.01
49,leshukonskoye,100,RU,1604803381,95,64.9,45.76,33.51,16.53
50,riyadh,0,SA,1604803249,39,24.69,46.72,64.4,2.24
51,nyurba,0,RU,1604803264,88,63.28,118.33,-1.39,4.41
52,nikolskoye,90,RU,1604802970,81,59.7,30.79,48.2,11.18
53,vaini,20,TO,1604802971,74,-21.2,-175.2,80.6,9.17
54,new norfolk,0,AU,1604802906,40,-42.78,147.06,68.0,1.99
55,kushmurun,100,KZ,1604803382,83,52.45,64.63,40.1,18.43
56,ilulissat,4,GL,1604803137,43,69.22,-51.1,15.8,11.41
57,hobart,20,AU,1604802788,44,-42.88,147.33,68.0,9.17
58,chuy,0,UY,1604802938,94,-33.7,-53.46,59.0,5.53
59,lebu,0,CL,1604803029,85,-37.62,-73.65,52.57,20.29
60,airai,69,TL,1604802967,35,-8.93,125.41,82.0,6.31
61,flinders,90,AU,1604802730,55,-34.58,150.86,64.99,12.75
62,puerto ayora,18,EC,1604803058,81,-0.74,-90.35,68.0,4.0
63,castro,0,BR,1604802961,65,-24.79,-50.01,58.64,4.45
64,bethel,1,US,1604803166,81,41.37,-73.41,57.0,3.53
65,kinshasa,100,CD,1604803383,88,-4.32,15.32,77.0,2.24
66,birao,67,CF,1604803383,40,10.28,22.79,72.34,4.25
67,dikson,100,RU,1604802785,91,73.51,80.55,-1.79,13.4
68,san patricio,20,US,1604803383,94,28.02,-97.52,72.0,12.75
69,souillac,75,MU,1604803078,88,-20.52,57.52,71.6,9.17
70,praya,0,CV,1604803383,83,14.92,-23.51,77.0,13.87
71,iqaluit,75,CA,1604802973,77,63.75,-68.51,5.0,4.7
72,saint-pierre,0,RE,1604803384,64,-21.34,55.48,71.6,4.7
73,tuktoyaktuk,75,CA,1604802969,85,69.45,-133.04,24.8,18.34
74,ponta do sol,20,PT,1604803311,77,32.67,-17.1,62.6,5.82
75,yellowknife,75,CA,1604802790,84,62.46,-114.35,6.8,3.91
76,acarau,28,BR,1604803384,79,-2.89,-40.12,78.4,13.98
77,hilo,90,US,1604803260,88,19.73,-155.09,75.2,6.93
78,hithadhoo,19,MV,1604803158,70,-0.6,73.08,84.18,7.27
79,loreto,13,MX,1604803384,35,22.27,-101.97,57.9,4.59
80,katobu,1,ID,1604803384,40,-4.94,122.53,93.79,0.18
81,coihaique,0,CL,1604803236,66,-45.58,-72.07,50.0,3.36
82,olafsvik,49,IS,1604803244,73,64.89,-23.71,39.65,21.65
83,east london,2,ZA,1604803183,81,-33.02,27.91,68.41,11.39
84,la ronge,100,CA,1604803347,79,55.1,-105.28,19.4,10.29
85,sangre grande,20,TT,1604803385,88,10.58,-61.12,79.0,7.02
86,port keats,0,AU,1604803385,32,-14.25,129.55,98.44,5.06
87,yenagoa,94,NG,1604803385,94,4.92,6.26,75.54,3.44
88,butaritari,66,KI,1604803167,69,3.07,172.79,81.28,8.5
89,aykhal,0,RU,1604803385,84,66.0,111.5,-0.4,2.24
90,codrington,0,AU,1604803186,67,-38.27,141.97,63.05,10.65
91,utete,86,TZ,1604803385,96,-7.99,38.76,72.86,1.21
92,north bend,90,US,1604803338,87,43.41,-124.22,50.0,9.17
93,kapaa,90,US,1604802840,83,22.08,-159.32,80.6,17.22
94,kurchum,68,KZ,1604803268,64,48.57,83.65,41.31,4.14
95,merke,82,KZ,1604803386,26,42.87,73.18,62.38,10.22
96,saint george,91,US,1604803103,81,37.1,-113.58,44.01,14.99
97,kijang,0,KR,1604803386,27,35.24,129.21,64.4,9.17
98,bontang,100,ID,1604803386,78,0.13,117.5,80.87,1.36
99,klaksvik,82,FO,1604802791,86,62.23,-6.59,41.0,10.29
100,vao,17,NC,1604803387,72,-22.67,167.48,73.6,14.47
101,kodiak,90,US,1604803035,87,57.79,-152.41,46.4,14.99
102,murray bridge,0,AU,1604803227,36,-35.12,139.27,75.0,7.43
103,la seyne-sur-mer,100,FR,1604803387,86,43.1,5.88,61.0,11.99
104,bengkulu,99,ID,1604803387,63,-3.8,102.27,84.7,3.51
105,mugur-aksy,1,RU,1604803387,89,50.35,90.5,27.16,5.75
106,kokopo,45,PG,1604803387,67,-4.35,152.26,85.08,6.13
107,qaanaaq,1,GL,1604803080,68,77.48,-69.36,-11.45,10.36
108,salalah,0,OM,1604803133,56,17.02,54.09,71.6,5.82
109,tasiilaq,95,GL,1604803161,74,65.61,-37.64,30.2,9.01
110,salinopolis,46,BR,1604803388,81,-0.61,-47.36,80.96,13.56
111,caruray,90,PH,1604803388,78,10.31,119.01,82.4,6.93
112,saint-philippe,20,RE,1604803228,64,-21.36,55.77,71.6,6.93
113,novobirilyussy,51,RU,1604803388,84,56.95,90.67,37.56,11.18
114,aranos,0,NA,1604803388,36,-24.13,19.12,66.51,8.21
115,coruripe,6,BR,1604803388,83,-10.13,-36.18,76.3,10.69
116,camana,24,PE,1604803388,78,-16.62,-72.71,63.43,6.06
117,beringovskiy,99,RU,1604803371,95,63.05,179.32,27.18,13.4
118,prince rupert,1,CA,1604803388,64,54.32,-130.32,41.0,10.29
119,hondo,20,JP,1604803147,42,32.45,130.2,68.0,13.87
120,bucksport,100,US,1604803389,89,44.57,-68.8,51.01,1.99
121,deputatskiy,99,RU,1604803389,93,69.3,139.9,-3.89,3.62
122,chokurdakh,100,RU,1604803007,95,70.63,147.92,2.19,3.33
123,putte,0,BE,1604803389,87,51.05,4.63,48.2,2.24
124,angul,0,IN,1604803389,53,20.85,85.1,71.31,4.88
125,gambela,0,ET,1604803389,82,8.25,34.58,70.54,3.53
126,nogales,1,MX,1604803389,72,31.31,-110.94,60.8,11.41
127,isangel,27,VU,1604803389,75,-19.55,169.27,80.62,8.75
128,manggar,75,ID,1604803389,70,-2.88,108.27,84.49,4.92
129,lorengau,100,PG,1604803301,60,-2.02,147.27,85.17,5.88
130,detva,90,SK,1604803390,73,48.56,19.42,35.01,1.12
131,ostrovnoy,64,RU,1604803390,81,68.05,39.51,36.99,27.27
132,segezha,0,RU,1604803390,84,63.74,34.32,34.92,17.52
133,noumea,90,NC,1604803272,54,-22.28,166.46,80.6,14.99
134,wajima,75,JP,1604803390,72,37.4,136.9,59.0,9.17
135,davydivka,0,UA,1604803390,76,48.12,25.56,43.21,3.02
136,bathsheba,40,BB,1604803349,83,13.22,-59.52,80.6,20.8
137,richards bay,0,ZA,1604802709,88,-28.78,32.04,72.84,4.0
138,solwezi,44,ZM,1604803390,53,-12.17,26.39,61.57,4.52
139,zollikofen,90,CH,1604803390,100,47.0,7.46,45.0,2.24
140,sajanan,20,TN,1604803391,87,37.06,9.24,60.8,2.24
141,hervey bay,40,AU,1604803391,39,-25.3,152.85,80.6,17.22
142,rayevskaya,73,RU,1604803391,81,44.83,37.56,46.4,4.47
143,mongo,1,TD,1604803391,23,12.18,18.69,72.84,5.1
144,sambava,100,MG,1604803391,86,-14.27,50.17,75.96,7.56
145,pimentel,22,PE,1604803391,85,-6.84,-79.93,62.15,12.5
146,alyangula,40,AU,1604803391,63,-13.85,136.42,93.2,9.17
147,xichang,91,CN,1604803391,58,27.9,102.26,60.94,1.05
148,basco,84,PH,1604803392,83,20.45,121.97,80.8,25.93
149,kidal,0,ML,1604803392,26,18.44,1.41,70.65,13.11
150,sitka,1,US,1604802851,86,57.05,-135.33,33.8,6.93
151,carnarvon,41,AU,1604803229,65,-24.87,113.63,77.0,14.99
152,avarua,67,CK,1604803036,78,-21.21,-159.78,77.0,8.34
153,kaeo,13,NZ,1604803392,83,-35.1,173.78,66.99,11.01
154,birzai,100,LT,1604803392,81,56.2,24.75,49.6,11.72
155,kanniyakumari,88,IN,1604803392,70,8.08,77.57,83.55,16.82
156,bellinge,0,DK,1604803392,93,55.34,10.32,39.2,2.15
157,hami,59,CN,1604803146,39,42.8,93.45,49.24,6.51
158,kununurra,75,AU,1604803176,36,-15.77,128.73,93.2,8.05
159,el alto,33,PE,1604803393,87,-4.27,-81.21,62.46,18.32
160,bani,98,DO,1604803393,100,18.28,-70.33,75.99,3.83
161,cape town,75,ZA,1604803005,93,-33.93,18.42,59.0,16.11
162,orange cove,75,US,1604803272,93,36.62,-119.31,48.2,8.05
163,kahului,20,US,1604803222,55,20.89,-156.47,87.8,18.34
164,kilindoni,71,TZ,1604803393,83,-7.91,39.67,79.81,13.89
165,havoysund,100,NO,1604803393,93,71.0,24.66,37.4,46.08
166,borogontsy,96,RU,1604803393,88,62.67,131.17,-7.24,4.72
167,sao bento,1,BR,1604803377,70,-6.28,-37.75,75.83,13.6
168,buraydah,40,SA,1604803394,93,26.33,43.98,64.4,5.82
169,sanandaj,72,IR,1604803394,73,35.31,46.99,48.49,4.09
170,barra da estiva,72,BR,1604803394,99,-13.63,-41.33,63.99,3.31
171,biak,100,ID,1604803394,58,-0.91,122.88,84.83,8.97
172,diebougou,97,BF,1604803394,22,10.97,-3.25,72.12,1.57
173,upernavik,36,GL,1604803032,78,72.79,-56.15,1.18,7.96
174,sinjar,0,IQ,1604803395,61,36.32,41.88,58.42,4.29
175,aklavik,97,CA,1604803395,79,68.22,-135.01,26.6,3.36
176,ribeira grande,19,PT,1604803136,70,38.52,-28.7,61.18,15.41
177,ola,100,RU,1604803395,87,59.58,151.28,13.96,16.55
178,georgetown,20,MY,1604803055,74,5.41,100.34,84.2,4.7
179,araguaina,97,BR,1604803395,86,-7.19,-48.21,76.35,3.65
180,sur,0,OM,1604803395,62,22.57,59.53,77.45,4.05
181,meulaboh,71,ID,1604803215,68,4.14,96.13,84.69,0.96
182,longyearbyen,75,SJ,1604802976,86,78.22,15.64,30.2,5.01
183,homer,90,US,1604803396,100,59.64,-151.55,42.01,9.04
184,vila franca do campo,20,PT,1604803396,71,37.72,-25.43,57.2,4.7
185,alugan,93,PH,1604803396,74,12.22,125.48,83.48,8.23
186,kloulklubed,90,PW,1604803396,79,7.04,134.26,84.2,19.46
187,tahta,0,EG,1604803396,72,26.77,31.5,59.0,4.7
188,ixtapa,5,MX,1604803396,74,20.7,-105.2,80.6,4.7
189,ouricuri,46,BR,1604803396,67,-7.88,-40.08,78.13,10.69
190,kentau,94,KZ,1604803396,44,43.52,68.51,46.17,1.39
191,faanui,97,PF,1604802949,76,-16.48,-151.75,79.34,11.27
192,darab,0,IR,1604803397,47,28.75,54.54,50.83,1.25
193,vakhrushev,100,RU,1604803397,85,48.98,142.97,33.6,13.78
194,vestmanna,82,FO,1604803397,86,62.16,-7.17,41.0,10.29
195,clyde river,1,CA,1604803180,59,70.47,-68.59,-0.4,6.93
196,ilawe,99,NG,1604803397,97,7.87,4.43,70.74,2.73
197,pisco,90,PE,1604803202,88,-13.7,-76.22,62.6,11.41
198,martinsville,1,US,1604803186,100,36.69,-79.87,60.01,0.31
199,pskov,100,RU,1604803398,81,57.81,28.35,50.0,8.95
200,kirakira,51,SB,1604803047,77,-10.45,161.92,83.62,6.91
201,saint-joseph,0,RE,1604803398,64,-21.37,55.62,71.6,4.7
202,pangnirtung,93,CA,1604803398,83,66.15,-65.71,4.32,3.31
203,kavaratti,1,IN,1604803302,72,10.57,72.64,83.17,6.35
204,acapulco,20,MX,1604803172,78,16.86,-99.89,82.4,5.82
205,fort dodge,1,US,1604803283,67,42.5,-94.17,62.6,17.22
206,arraial do cabo,93,BR,1604803021,81,-22.97,-42.03,72.1,8.77
207,ancud,18,CL,1604803399,66,-41.87,-73.82,53.01,13.87
208,griffith,1,US,1604803150,71,41.53,-87.42,60.8,8.05
209,kysyl-syr,88,RU,1604803399,89,63.9,122.76,-5.6,5.12
210,tuatapere,8,NZ,1604803399,56,-46.13,167.68,54.0,13.0
211,san cristobal,93,VE,1604803278,91,7.77,-72.22,66.81,0.49
212,healesville,0,AU,1604803399,40,-37.65,145.52,77.0,1.99
213,santiago,0,CL,1604803191,51,-33.46,-70.65,66.99,10.29
214,voh,23,NC,1604803399,60,-20.97,164.7,80.53,13.09
215,siavonga,0,ZM,1604803399,33,-16.54,28.71,80.98,4.03
216,abu dhabi,0,AE,1604803400,65,24.47,54.37,78.8,6.93
217,santa maria,0,BR,1604803400,77,-29.68,-53.81,68.0,16.11
218,fortuna,20,US,1604803384,93,40.6,-124.16,51.01,10.29
219,kailua,75,US,1604803322,65,21.4,-157.74,82.4,12.75
220,port blair,3,IN,1604803400,74,11.67,92.75,84.16,11.3
221,dali,2,CN,1604803400,50,25.7,100.18,63.68,1.1
222,gravdal,98,NO,1604803400,70,68.12,13.5,40.33,16.28
223,gurh,0,IN,1604803400,32,24.52,81.52,69.33,3.85
224,bandarbeyla,33,SO,1604803400,84,9.49,50.81,74.3,12.12
225,presque isle,90,US,1604803401,61,46.68,-68.02,46.4,6.93
226,oistins,40,BB,1604803401,83,13.07,-59.53,80.6,20.8
227,cidreira,36,BR,1604802911,85,-30.18,-50.21,67.73,15.39
228,alta floresta,59,BR,1604803401,82,-9.88,-56.09,73.56,3.58
229,ler,88,SS,1604803401,48,8.3,30.14,72.32,3.13
230,khatanga,0,RU,1604803046,87,71.97,102.5,-3.66,12.88
231,constitucion,0,CL,1604803149,69,-35.33,-72.42,58.17,8.66
232,bucak,0,TR,1604803401,66,37.46,30.59,64.0,12.75
233,yanam,0,IN,1604803402,74,16.73,82.22,80.6,5.82
234,soderhamn,59,SE,1604803402,83,61.3,17.06,42.01,1.01
235,bamiantong,95,CN,1604803402,89,44.93,130.53,31.46,18.97
236,ardabil,82,IR,1604803402,75,38.25,48.29,44.01,6.24
237,biltine,1,TD,1604803402,31,14.53,20.92,71.02,8.72
238,krasnoselkup,100,RU,1604803402,98,65.7,82.47,34.3,14.81
239,ornskoldsvik,0,SE,1604803266,79,63.29,18.72,32.0,13.87
240,ayan,99,RU,1604803402,86,56.45,138.17,11.68,18.21
241,lima,0,PE,1604803171,82,-12.04,-77.03,62.6,6.93
242,nabire,92,ID,1604803403,64,-3.37,135.48,86.23,5.97
243,naze,75,JP,1604803116,73,28.37,129.48,75.2,12.75
244,tukrah,28,LY,1604803403,73,32.53,20.58,65.46,22.82
245,sayyan,64,YE,1604803403,49,15.17,44.32,49.17,2.39
246,qasigiannguit,20,GL,1604803403,43,68.82,-51.19,15.8,11.41
247,denpasar,0,ID,1604803403,66,-8.65,115.22,83.75,5.7
248,orshanka,100,RU,1604803403,89,56.92,47.89,37.2,14.83
249,taywarah,68,AF,1604803404,57,33.35,64.42,34.48,1.48
250,shimoda,75,JP,1604803004,68,34.67,138.95,68.0,3.36
251,qaqortoq,100,GL,1604803404,74,60.72,-46.03,28.4,5.82
252,yerbogachen,100,RU,1604803404,94,61.28,108.01,9.32,6.31
253,mbandaka,92,CD,1604803404,92,0.05,18.26,70.63,1.97
254,lompoc,1,US,1604803133,71,34.64,-120.46,53.6,9.17
255,esil,100,KZ,1604803404,73,51.96,66.4,40.44,20.09
256,orsha,98,BY,1604803404,89,54.52,30.41,46.83,15.57
257,sangmelima,100,CM,1604803404,99,2.93,11.98,67.46,1.97
258,williston,90,US,1604803405,100,48.15,-103.62,35.6,8.05
259,aksarka,100,RU,1604803405,99,66.56,67.8,25.9,4.92
260,gisborne,20,NZ,1604803275,44,-38.65,178.0,74.28,7.07
261,new glasgow,100,CA,1604803405,75,45.58,-62.65,42.8,13.87
262,bismil,0,TR,1604803405,100,37.85,40.67,46.4,3.74
263,chiredzi,0,ZW,1604803130,46,-21.05,31.67,77.76,3.85
264,caravelas,100,BR,1604803257,95,-17.71,-39.25,74.25,4.56
265,kongolo,46,CD,1604803405,96,-5.38,27.0,67.64,2.21
266,nome,90,US,1604803405,80,64.5,-165.41,35.6,3.58
267,rupert,90,US,1604803405,70,42.62,-113.68,44.6,5.64
268,saldanha,64,ZA,1604803014,82,-33.01,17.94,59.0,10.29
269,xique-xique,1,BR,1604803362,68,-10.82,-42.73,78.12,14.79
270,port hedland,0,AU,1604803083,34,-20.32,118.57,96.8,12.75
271,harper,50,LR,1604803406,86,4.38,-7.72,78.15,5.93
272,bambous virieux,75,MU,1604803110,88,-20.34,57.76,71.6,9.17
273,sinegorye,100,RU,1604803406,88,62.08,150.48,-0.31,4.21
274,harlingen,1,US,1604803373,88,26.19,-97.7,72.0,4.7
275,makakilo city,40,US,1604803320,58,21.35,-158.09,86.0,8.05
276,mahebourg,75,MU,1604803181,88,-20.41,57.7,71.6,9.17
277,nemuro,20,JP,1604803397,66,43.32,145.57,51.8,4.7
278,sembakung,100,ID,1604803407,66,3.82,117.25,87.69,2.48
279,anadyr,40,RU,1604803407,85,64.75,177.48,19.4,4.47
280,palmer,40,US,1604803407,76,42.16,-72.33,55.0,2.48
281,cherskiy,99,RU,1604802705,94,68.75,161.3,4.19,6.2
282,saryg-sep,0,RU,1604803407,94,51.5,95.6,30.31,3.13
283,adrar,0,MR,1604803407,21,20.5,-10.07,80.13,8.5
284,skibbereen,75,IE,1604803407,100,51.55,-9.27,51.8,9.17
285,paraiso,90,CR,1604803407,100,9.84,-83.87,68.0,3.36
286,sao filipe,82,CV,1604803065,77,14.9,-24.5,79.0,7.81
287,korla,0,CN,1604803408,48,41.76,86.15,43.88,4.32
288,bongaree,89,AU,1604803364,67,-27.08,153.16,71.01,3.0
289,katsuura,75,JP,1604803044,72,35.13,140.3,72.0,5.82
290,kaitangata,0,NZ,1604803408,40,-46.28,169.85,55.0,10.0
291,lyaskelya,82,RU,1604803408,78,61.77,31.02,37.33,9.01
292,novo aripuana,17,BR,1604803408,92,-5.12,-60.38,75.87,0.43
293,shingu,75,JP,1604803409,60,33.73,135.98,68.0,14.99
294,yar-sale,94,RU,1604803409,99,66.83,70.83,25.34,1.23
295,kalmunai,68,LK,1604803409,73,7.42,81.82,82.78,5.82
296,troitsko-pechorsk,98,RU,1604803409,98,62.71,56.2,30.65,6.64
297,lodja,90,CD,1604803409,96,-3.48,23.43,66.16,0.96
298,cagli,5,IT,1604803409,81,43.55,12.65,50.0,2.24
299,atar,33,MR,1604803409,21,20.52,-13.05,81.63,8.95
300,kavieng,36,PG,1604803409,65,-2.57,150.8,85.01,3.27
301,pankrushikha,30,RU,1604803409,69,53.83,80.34,39.61,17.65
302,comodoro rivadavia,0,AR,1604803393,71,-45.87,-67.5,57.2,3.36
303,north platte,1,US,1604803274,40,41.12,-100.77,69.8,27.51
304,pucallpa,40,PE,1604803410,69,-8.38,-74.55,82.4,6.93
305,visby,89,SE,1604803410,87,57.64,18.3,50.0,14.99
306,manali,40,IN,1604803410,94,13.17,80.27,78.8,2.24
307,granada,57,ES,1604803366,60,37.25,-3.25,48.99,1.01
308,eureka,4,US,1604803410,45,40.8,-124.16,51.01,5.01
309,lagoa,28,PT,1604803225,72,39.05,-27.98,61.09,15.17
310,murayama,75,JP,1604803410,55,38.52,140.33,60.8,5.82
311,malakal,0,SS,1604803411,35,9.53,31.66,72.81,4.16
312,saeby,0,DK,1604803411,95,57.33,10.52,43.0,12.62
313,puerto cabezas,100,NI,1604803411,92,14.04,-83.39,76.93,10.25
314,patulul,100,GT,1604803411,97,14.42,-91.17,69.01,2.46
315,jipijapa,75,EC,1604803411,83,-1.33,-80.58,73.4,11.41
316,kazachinskoye,75,RU,1604803411,89,57.7,93.28,37.63,6.85
317,berbera,44,SO,1604803339,78,10.44,45.01,75.65,3.56
318,gotsu,20,JP,1604803411,42,35.0,132.22,64.4,11.41
319,chapais,40,CA,1604803411,80,49.78,-74.85,30.2,6.93
320,hamilton,1,US,1604803256,87,39.18,-84.53,60.8,2.71
321,ojinaga,1,MX,1604803412,25,29.57,-104.42,75.2,5.82
322,tornio,0,FI,1604803412,79,65.85,24.15,32.0,6.93
323,rudnaya pristan,100,RU,1604803412,85,44.36,135.81,35.56,2.39
324,malartic,75,CA,1604803412,100,48.13,-78.13,41.0,3.13
325,pacific grove,90,US,1604803412,71,36.62,-121.92,54.0,10.29
326,awbari,0,LY,1604803412,74,26.59,12.78,53.24,4.32
327,berlevag,98,NO,1604803412,74,70.86,29.09,39.34,35.16
328,cerkezkoy,90,TR,1604803412,93,41.28,28.0,53.6,8.05
329,alpena,1,US,1604803413,51,45.06,-83.43,62.6,12.75
330,portland,75,US,1604803148,81,45.52,-122.68,43.0,9.17
331,tura,0,IN,1604803413,64,25.52,90.22,75.63,1.68
332,matagami,90,CA,1604803413,95,49.75,-77.63,32.0,4.7
333,tiksi,69,RU,1604803338,92,71.69,128.87,-6.02,2.3
334,alofi,29,NU,1604803272,69,-19.06,-169.92,80.6,12.75
335,aracati,67,BR,1604803310,73,-4.56,-37.77,79.68,12.12
336,vargashi,100,RU,1604803413,97,55.36,65.85,36.3,11.3
337,adjumani,100,UG,1604803413,98,3.38,31.79,66.13,2.57
338,mar del plata,90,AR,1604802908,100,-38.0,-57.56,62.01,5.82
339,muborak,100,UZ,1604803414,31,39.26,65.15,55.83,4.99
340,kashin,100,RU,1604803414,82,57.36,37.61,45.61,14.72
341,esperance,1,AU,1604803300,56,-33.87,121.9,73.4,5.82
342,kyren,2,RU,1604803414,82,51.68,102.14,34.03,1.12
343,fayaoue,0,NC,1604803414,78,-20.65,166.53,76.91,15.88
344,kojnare,5,BG,1604803414,100,43.35,24.13,35.6,1.92
345,muisne,98,EC,1604803414,85,0.6,-80.03,74.91,7.34
346,lavrentiya,10,RU,1604803169,95,65.58,-171.0,27.97,5.12
347,tessalit,82,ML,1604803414,25,20.2,1.01,70.14,10.36
348,kasongo-lunda,100,CD,1604803034,93,-6.47,16.82,70.25,0.98
349,sobradinho,24,BR,1604803415,99,-12.83,-39.1,71.4,1.99
350,hay river,95,CA,1604803415,85,60.82,-115.8,12.2,4.7
351,ashland,1,US,1604803408,62,40.82,-82.27,53.01,6.93
352,san juan de colon,100,VE,1604803415,90,8.03,-72.26,68.72,2.51
353,isiro,100,CD,1604803415,98,2.77,27.62,66.47,0.78
354,banda aceh,63,ID,1604803209,69,5.56,95.32,82.87,3.04
355,lucapa,100,AO,1604803188,100,-8.42,20.74,64.31,2.8
356,yeppoon,40,AU,1604803415,47,-23.13,150.73,80.6,16.11
357,olinda,75,BR,1604803415,74,-8.01,-34.86,80.6,10.29
358,adre,0,TD,1604803416,35,13.47,22.2,66.83,11.43
359,okha,100,RU,1604803416,87,53.57,142.95,28.17,15.55
360,pascagoula,40,US,1604803416,78,30.37,-88.56,73.4,6.93
361,udachnyy,0,RU,1604803416,84,66.42,112.4,-0.4,2.24
362,bredy,100,RU,1604803416,85,52.42,60.34,36.09,12.91
363,mahajanga,20,MG,1604803416,83,-15.72,46.32,75.2,5.82
364,nanortalik,100,GL,1604803416,97,60.14,-45.24,29.37,14.61
365,bud,1,US,1604803416,62,39.45,-86.18,57.2,3.36
366,lata,20,PT,1604803175,87,40.16,-8.33,62.01,11.41
367,eagle pass,0,US,1604803417,59,28.71,-100.5,66.99,3.0
368,pasni,0,PK,1604803417,44,25.26,63.47,75.99,4.74
369,koumra,12,TD,1604803417,44,8.91,17.55,72.36,3.18
370,yaroslavskiy,100,RU,1604803417,52,44.17,132.21,75.49,17.16
371,mount gambier,0,AU,1604803068,48,-37.83,140.77,66.2,8.05
372,belmonte,75,BR,1604803121,88,-15.86,-38.88,77.0,8.05
373,zapolyarnyy,96,RU,1604803417,95,69.42,30.81,35.6,28.86
374,chara,48,RU,1604803417,79,56.91,118.26,0.57,1.92
375,marsabit,93,KE,1604803157,93,2.33,37.99,64.54,11.74
376,dzaoudzi,90,YT,1604803418,88,-12.79,45.27,77.0,2.24
377,labuan,20,MY,1604803418,70,5.28,115.24,86.0,4.7
378,syamzha,91,RU,1604803418,72,60.02,41.06,40.86,13.35
379,komsomolskiy,1,UZ,1604802962,26,40.43,71.72,44.6,6.93
380,ilam,0,NP,1604803418,43,26.92,87.92,66.09,1.05
381,inhambane,0,MZ,1604803008,86,-23.86,35.38,77.11,10.89
382,noyabrsk,100,RU,1604803303,98,63.2,75.45,33.62,12.17
383,narsaq,100,GL,1604803107,74,60.92,-46.05,28.4,5.82
384,fairbanks,90,US,1604803203,85,64.84,-147.72,23.0,4.7
385,conceicao do mato dentro,0,BR,1604803202,94,-19.04,-43.42,65.17,0.89
386,mantua,0,IT,1604803419,98,45.17,10.78,46.99,3.0
387,praia da vitoria,75,PT,1604803419,87,38.73,-27.07,57.2,11.48
388,ozinki,4,RU,1604803419,91,51.18,49.68,34.05,11.97
389,kingman,90,US,1604803216,65,35.19,-114.05,46.4,11.41
390,adana,0,TR,1604803419,45,36.98,35.29,62.6,9.17
391,barranca,24,PE,1604803200,90,-10.75,-77.77,59.22,5.68
392,novikovo,1,RU,1604803419,91,51.15,37.89,42.49,11.03
393,acari,44,PE,1604803391,60,-15.43,-74.62,64.22,2.39
394,pudozh,30,RU,1604803420,78,61.81,36.53,37.08,9.98
395,lyantonde,89,UG,1604803420,91,-0.4,31.16,62.44,2.84
396,hearst,100,CA,1604803420,98,49.68,-83.67,33.8,3.36
397,bonthe,100,SL,1604803420,86,7.53,-12.51,79.11,5.23
398,khandyga,97,RU,1604803420,87,62.67,135.6,-5.48,0.09
399,tilichiki,0,RU,1604803155,92,60.47,166.1,20.34,8.1
400,grand gaube,24,MU,1604802931,87,-20.01,57.66,71.01,8.01
401,vanavara,100,RU,1604803421,97,60.34,102.28,21.63,5.93
402,igrim,64,RU,1604802958,98,63.19,64.42,28.67,5.88
403,grindavik,40,IS,1604803286,65,63.84,-22.43,39.2,13.87
404,masterton,99,NZ,1604803166,72,-40.96,175.66,55.99,13.67
405,corinto,75,GR,1604803421,67,37.94,22.96,60.01,6.93
406,aliwal north,0,ZA,1604803421,45,-30.69,26.71,60.04,4.27
407,igarka,100,RU,1604803421,97,67.47,86.58,16.59,14.61
408,baruun-urt,0,MN,1604803421,72,46.68,113.28,27.14,12.91
409,narrabri,75,AU,1604803421,36,-30.32,149.78,75.2,6.93
410,kirkuk,0,IQ,1604803422,63,35.47,44.39,61.79,4.99
411,mabaruma,0,GY,1604803422,95,8.2,-59.78,75.06,2.28
412,nyirbeltek,90,HU,1604803422,100,47.7,22.13,35.6,2.04
413,san-pedro,14,CI,1604803422,89,4.75,-6.64,77.41,5.61
414,hunchun,0,CN,1604803422,57,42.87,130.36,39.72,24.0
415,ambunti,16,PG,1604803422,46,-4.24,142.84,92.68,3.15
416,touros,75,BR,1604803317,78,-5.2,-35.46,80.6,9.17
417,boyolangu,81,ID,1604803394,67,-8.12,111.89,83.62,6.24
418,los patios,97,CO,1604803423,83,7.84,-72.5,73.18,2.33
419,les cayes,100,HT,1604803423,86,18.2,-73.75,77.85,10.04
420,klang,20,MY,1604803423,70,3.03,101.45,86.0,2.24
421,bonfim,35,BR,1604803423,79,3.08,-59.95,79.84,2.24
422,kenai,90,US,1604803225,86,60.55,-151.26,27.0,14.99
423,san ramon,1,US,1604803423,71,37.78,-121.98,53.01,12.75
424,sakakah,0,SA,1604803423,51,29.97,40.21,62.6,9.17
425,agadez,29,NE,1604803054,44,19.75,10.25,63.03,13.47
426,pipri,0,IN,1604803423,43,19.8,75.53,70.09,6.85
427,saint-georges,20,GD,1604803082,83,12.06,-61.75,82.4,18.34
428,thayetmyo,0,MM,1604803424,72,19.32,95.18,81.28,8.1
429,palpa,38,PE,1604803424,69,-14.53,-75.19,64.89,2.95
430,moose factory,1,CA,1604803424,86,51.26,-80.61,30.2,11.41
431,venancio aires,23,BR,1604803424,94,-29.61,-52.19,61.29,1.99
432,aasiaat,5,GL,1604803424,86,68.71,-52.87,7.03,6.55
433,caraballeda,68,VE,1604803424,78,10.61,-66.85,79.43,6.4
434,yulara,32,AU,1604803424,7,-25.24,130.99,91.4,8.05
435,saint-augustin,98,CA,1604803274,89,51.23,-58.65,31.59,14.81
436,bambanglipuro,75,ID,1604803425,66,-7.95,110.28,85.06,9.42
437,wadi maliz,57,TN,1604803425,49,36.47,8.55,63.18,1.57
438,filadelfia,1,US,1604803298,76,39.95,-75.16,60.01,3.36
439,lagos,20,NG,1604803182,94,6.58,3.75,78.8,3.69
440,los arcos,95,PH,1604803425,56,8.63,125.99,89.89,2.75
441,ziri,0,SI,1604803425,76,46.04,14.11,45.0,1.07
442,sinegorsk,75,RU,1604803425,86,47.17,142.5,37.4,15.66
443,broken hill,0,AU,1604802688,20,-31.95,141.43,77.0,12.75
444,rawson,89,AR,1604803425,60,-43.3,-65.1,62.04,16.75
445,namibe,100,AO,1604803015,70,-15.2,12.15,68.63,5.06
446,buin,0,CL,1604803426,51,-33.73,-70.75,66.99,10.29
447,valdivia,100,CL,1604803131,87,-39.81,-73.25,48.2,2.24
448,jilin,0,CN,1604803426,75,43.0,126.0,32.77,18.07
449,kropotkin,3,RU,1604803426,87,45.44,40.58,44.85,2.35
450,boa vista,40,BR,1604803374,88,2.82,-60.67,77.0,2.24
451,paamiut,84,GL,1604803426,88,61.99,-49.67,26.76,30.6
452,dasoguz,90,TM,1604803426,87,41.84,59.97,48.2,6.93
453,sainte-marie,75,RE,1604803426,68,-20.9,55.55,71.6,13.87
454,erzin,0,TR,1604803426,56,36.96,36.2,59.0,11.99
455,poum,6,NC,1604803020,79,-20.23,164.02,76.41,22.03
456,carahue,0,CL,1604803427,93,-38.7,-73.17,50.0,3.36
457,lasem,45,ID,1604803427,60,-6.69,111.45,86.92,3.8
458,itaituba,97,BR,1604803427,94,-4.28,-55.98,75.38,1.99
459,huntington beach,40,US,1604803279,62,33.66,-118.0,57.99,5.82
460,provideniya,0,RU,1604803039,93,64.38,-173.3,27.41,5.48
461,lakefield,1,US,1604803427,67,43.68,-95.17,63.0,18.34
462,ifakara,14,TZ,1604803427,86,-8.13,36.68,71.83,2.35
463,bac lieu,43,VN,1604803428,75,9.29,105.72,83.57,9.31
464,ribeirao branco,2,BR,1604803428,95,-24.22,-48.77,55.22,3.69
465,geraldton,90,AU,1604803145,64,-28.77,114.6,73.4,11.41
466,sept-iles,2,CA,1604803390,68,50.2,-66.38,26.6,5.82
467,mardin,0,TR,1604803428,55,37.31,40.74,50.56,8.3
468,hasaki,75,JP,1604803106,73,35.73,140.83,69.8,9.17
469,paka,40,MY,1604803428,88,4.64,103.44,82.4,5.82
470,tarko-sale,100,RU,1604803428,94,64.92,77.78,32.0,13.11
471,nelson bay,40,AU,1604803429,56,-32.72,152.15,69.01,17.22
472,fengzhen,0,CN,1604803429,55,40.44,113.15,38.95,9.98
473,vestmannaeyjar,100,IS,1604803429,65,63.44,-20.27,43.95,16.58
474,kokoda,54,PG,1604803429,57,-8.88,147.74,86.5,4.92
475,mpongwe,1,ZM,1604803429,33,-13.51,28.16,65.55,5.41
476,rypefjord,100,NO,1604803429,96,70.63,23.67,37.4,46.08
477,quatre cocos,75,MU,1604803258,88,-20.21,57.76,71.6,9.17
478,mmathubudukwane,0,BW,1604803429,73,-24.6,26.43,69.8,6.93
479,soller,0,ES,1604803346,93,39.77,2.72,55.99,5.82
480,alekseyevka,0,RU,1604803429,92,50.63,38.69,41.76,9.89
481,quelimane,0,MZ,1604803430,83,-17.88,36.89,78.8,9.17
482,lasa,5,IT,1604802943,46,46.62,10.7,42.01,4.7
483,sombrio,76,BR,1604803430,90,-29.11,-49.62,64.8,3.62
484,villazon,100,BO,1604803430,84,-22.09,-65.59,44.35,6.38
485,tutoia,0,BR,1604803430,76,-2.76,-42.27,81.05,14.65
486,mandvi,0,IN,1604803430,34,22.83,69.37,80.73,8.25
487,lurgan,100,GB,1604803431,87,54.46,-6.33,51.8,12.75
488,aqtobe,90,KZ,1604803431,86,50.28,57.21,37.4,15.66
489,topeka,1,US,1604803431,59,39.05,-95.68,62.6,11.41
490,cabo san lucas,5,MX,1604803062,78,22.89,-109.91,78.8,3.36
491,hailey,75,US,1604803431,80,43.52,-114.32,41.0,4.7
492,gat,47,IL,1604803431,79,31.61,34.76,64.99,2.62
493,goderich,15,CA,1604803431,55,43.75,-81.72,60.8,13.87
494,espanola,90,US,1604803431,37,35.99,-106.08,55.4,8.05
495,gueret,0,FR,1604803431,93,46.17,1.87,55.4,5.82
496,ukiah,1,US,1604803200,57,39.15,-123.21,51.8,10.29
497,sterling,1,US,1604803432,76,39.01,-77.43,55.99,3.11
498,vila do maio,0,CV,1604802931,83,15.13,-23.22,77.0,13.87
499,westport,1,US,1604803236,82,41.14,-73.36,62.01,4.7
500,xining,90,CN,1604803432,64,36.62,101.77,38.28,0.09
501,auki,22,SB,1604803432,65,-8.77,160.7,86.38,4.03
502,sandwick,3,GB,1604803432,100,60.0,-1.25,44.6,1.12
503,lansdale,1,US,1604803432,81,40.24,-75.28,53.6,3.6
504,pitimbu,75,BR,1604803432,83,-7.47,-34.81,78.8,10.29
505,torbay,90,CA,1604802919,80,47.67,-52.73,37.0,12.75
506,asau,0,RO,1604803433,88,46.43,26.4,42.01,4.65
507,haines junction,100,CA,1604803315,83,60.75,-137.51,-7.6,1.12
508,krynychky,75,UA,1604803433,93,48.38,34.47,42.8,6.71
509,san andres,40,CO,1604803322,88,12.58,-81.7,78.8,2.24
510,chokwe,0,MZ,1604803433,41,-24.53,32.98,81.21,5.01
511,loandjili,100,CG,1604803433,86,-4.76,11.86,77.18,7.38
512,yeniseysk,48,RU,1604803433,92,58.45,92.17,35.62,5.88
513,juneau,75,US,1604803200,92,58.3,-134.42,28.0,4.07
514,waddan,1,LY,1604803433,92,29.16,16.14,56.01,7.74
515,batagay-alyta,16,RU,1604803434,80,67.8,130.41,-10.57,0.29
516,saint-ambroise,90,CA,1604803434,74,48.55,-71.33,41.0,12.75
517,sangueya,0,GN,1604803434,91,10.7,-14.37,76.78,1.74
518,panaba,0,MX,1604803434,94,21.28,-88.27,74.34,5.44
519,camacha,20,PT,1604803434,77,33.08,-16.33,66.2,9.17
520,jiayuguan,0,CN,1604803434,34,39.82,98.3,48.78,5.08
521,itarema,65,BR,1604803434,77,-2.92,-39.92,79.03,14.34
522,alihe,33,CN,1604803434,75,50.57,123.72,21.34,10.09
523,palmeira,0,BR,1604803434,82,-25.43,-50.01,58.12,4.56
524,ikalamavony,13,MG,1604803434,75,-21.15,46.58,70.32,4.07
525,polovinnoye,100,RU,1604803435,96,54.79,65.99,38.41,12.15
526,kudahuvadhoo,85,MV,1604803156,69,2.67,72.89,84.09,6.24
527,maxixe,0,MZ,1604803435,86,-23.86,35.35,76.59,10.11
528,huarmey,15,PE,1604803435,85,-10.07,-78.15,61.18,5.41
529,sao joao da barra,100,BR,1604803435,88,-21.64,-41.05,73.6,7.43
530,san jose,40,US,1604803372,58,37.34,-121.89,53.6,11.41
531,albury,0,AU,1604803435,46,-36.08,146.92,69.8,3.36
532,agadir,0,MA,1604803435,82,30.42,-9.6,57.2,4.7
533,sola,25,VU,1604803435,78,-13.88,167.55,82.08,11.43
534,santa cruz,0,BO,1604803204,69,-17.8,-63.17,80.6,2.24
535,emba,100,KZ,1604803243,76,48.83,58.14,37.99,17.0
536,talnakh,75,RU,1604803436,85,69.49,88.4,19.4,22.37
537,sioux lookout,90,CA,1604803328,93,50.1,-91.92,32.0,6.93
538,talkha,1,EG,1604803436,83,31.05,31.38,61.45,5.93
539,serenje,14,ZM,1604803436,55,-13.23,30.24,60.67,1.68
540,anchorage,90,US,1604803418,79,61.22,-149.9,26.01,5.82
541,rapar,0,IN,1604803436,41,23.57,70.63,79.09,5.39
542,bilma,0,NE,1604803436,44,18.69,12.92,65.1,12.59
543,san policarpo,94,PH,1604803436,75,12.18,125.51,83.3,8.52
544,shimanovsk,12,RU,1604803437,86,52.0,127.7,15.53,13.47
545,payson,90,US,1604803437,80,40.04,-111.73,39.99,11.41
546,mega,46,ET,1604803437,100,4.05,38.3,58.5,5.17
547,zhangye,0,CN,1604803146,34,38.93,100.45,50.63,1.48
548,hofn,67,IS,1604803437,82,64.25,-15.21,44.04,15.32
549,makinsk,100,KZ,1604803437,88,52.63,70.42,38.66,24.61
550,nanfeng,0,CN,1604803437,46,23.74,111.8,77.02,4.88
551,dillingen,0,DE,1604803437,93,49.35,6.73,42.8,3.36
552,lavra,75,PT,1604803438,82,41.26,-8.72,62.6,21.92
553,shache,2,CN,1604803438,41,38.42,77.24,46.6,2.55
554,gimli,100,CA,1604803438,80,50.63,-96.99,37.4,18.34
555,nogliki,95,RU,1604803438,87,51.83,143.17,28.74,11.45
556,kruisfontein,0,ZA,1604803438,91,-34.0,24.73,55.99,1.99
557,katangli,95,RU,1604803438,86,51.71,143.23,28.4,11.14
558,leninskoye,100,KZ,1604803438,30,41.76,69.39,55.4,4.7
559,pokaran,0,IN,1604803438,19,26.92,71.92,77.43,5.03
560,japura,97,ID,1604803439,70,-0.32,102.35,85.53,2.86
561,mangrol,0,IN,1604803232,39,21.12,70.12,78.15,10.11
562,harrismith,0,ZA,1604803439,56,-28.27,29.13,58.08,2.98
563,karasjok,90,NO,1604803439,74,69.47,25.51,37.4,59.73
564,caronport,85,CA,1604803439,77,50.45,-105.82,32.0,5.82
565,montepuez,74,MZ,1604803439,89,-13.13,39.0,68.76,2.86
566,tigil,24,RU,1604803439,88,57.8,158.67,30.56,5.39
567,kurayoshi,75,JP,1604803439,64,35.43,133.82,68.0,13.87
568,luoyang,46,CN,1604803439,28,34.68,112.45,60.48,9.28
569,mafra,28,BR,1604803439,94,-26.11,-49.81,55.0,4.0
570,nanhai,0,CN,1604803440,40,30.13,111.78,69.01,7.85
571,rio grande,0,BR,1604803440,90,-32.03,-52.1,62.87,10.89
572,samarai,60,PG,1604803282,79,-10.62,150.67,82.26,12.17
573,coquimbo,99,CL,1604803305,87,-29.95,-71.34,55.4,4.7
574,waitati,2,NZ,1604803440,48,-45.75,170.57,55.0,15.99
575,kurilsk,72,RU,1604803328,73,45.23,147.88,47.71,14.72
576,grootfontein,13,NA,1604803440,22,-19.57,18.12,71.15,11.27
577,port hardy,20,CA,1604803440,56,50.7,-127.42,46.4,13.87
578,mumford,100,GH,1604803441,84,5.26,-0.76,78.82,10.85
579,la libertad,92,EC,1604803441,84,-2.23,-80.9,70.47,11.3
580,norsup,75,VU,1604803441,74,-16.07,167.38,84.2,9.17
581,thiers,75,FR,1604803441,67,45.83,3.5,59.0,5.82
582,lucea,90,JM,1604803441,88,18.45,-78.17,79.0,6.93
583,neryungri,99,RU,1604803441,88,56.67,124.65,0.7,10.65
584,dingle,21,PH,1604803441,72,11.0,122.67,83.3,4.21
585,de-kastri,41,RU,1604803442,82,51.47,140.78,27.54,11.65
586,bilibino,100,RU,1604803442,91,68.05,166.44,1.15,1.86
587,kerouane,0,GN,1604803442,55,9.27,-9.02,68.99,2.08
588,kingaroy,75,AU,1604803442,60,-26.53,151.83,71.01,14.99
589,la rioja,90,ES,1604803442,100,42.25,-2.5,53.01,6.42
590,kalmar,0,SE,1604803442,93,56.66,16.36,46.99,6.93
